[
  { "index": 0,  "name": "Burgundy",             "country": "France",       "lat": 47.05,  "lon": 4.85  },
  { "index": 1,  "name": "Champagne",             "country": "France",       "lat": 49.08,  "lon": 3.96  },
  { "index": 2,  "name": "Bordeaux",              "country": "France",       "lat": 44.84,  "lon": -0.58 },
  { "index": 3,  "name": "Rhône Valley",          "country": "France",       "lat": 45.05,  "lon": 4.83  },
  { "index": 4,  "name": "Loire Valley",          "country": "France",       "lat": 47.39,  "lon": 0.69  },
  { "index": 5,  "name": "Alsace",                "country": "France",       "lat": 48.26,  "lon": 7.44  },
  { "index": 6,  "name": "Jura",                  "country": "France",       "lat": 46.67,  "lon": 5.56  },
  { "index": 7,  "name": "Languedoc-Roussillon",  "country": "France",       "lat": 43.61,  "lon": 3.88  },
  { "index": 8,  "name": "Barolo",                "country": "Italy",        "lat": 44.61,  "lon": 7.94  },
  { "index": 9,  "name": "Chianti Classico",      "country": "Italy",        "lat": 43.54,  "lon": 11.25 },
  { "index": 10, "name": "Brunello di Montalcino","country": "Italy",        "lat": 43.06,  "lon": 11.49 },
  { "index": 11, "name": "Amarone",               "country": "Italy",        "lat": 45.52,  "lon": 10.97 },
  { "index": 12, "name": "Etna",                  "country": "Italy",        "lat": 37.73,  "lon": 15.00 },
  { "index": 13, "name": "Soave",                 "country": "Italy",        "lat": 45.42,  "lon": 11.25 },
  { "index": 14, "name": "Taurasi",               "country": "Italy",        "lat": 40.98,  "lon": 15.02 },
  { "index": 15, "name": "Franciacorta",          "country": "Italy",        "lat": 45.60,  "lon": 10.00 },
  { "index": 16, "name": "Rioja",                 "country": "Spain",        "lat": 42.47,  "lon": -2.45 },
  { "index": 17, "name": "Ribera del Duero",      "country": "Spain",        "lat": 41.63,  "lon": -3.69 },
  { "index": 18, "name": "Priorat",               "country": "Spain",        "lat": 41.19,  "lon": 0.75  },
  { "index": 19, "name": "Rías Baixas",           "country": "Spain",        "lat": 42.35,  "lon": -8.72 },
  { "index": 20, "name": "Jerez",                 "country": "Spain",        "lat": 36.69,  "lon": -6.14 },
  { "index": 21, "name": "Bierzo",                "country": "Spain",        "lat": 42.60,  "lon": -6.73 },
  { "index": 22, "name": "Canary Islands",        "country": "Spain",        "lat": 28.29,  "lon": -16.63},
  { "index": 23, "name": "Douro Valley",          "country": "Portugal",     "lat": 41.16,  "lon": -7.79 },
  { "index": 24, "name": "Port Wine",             "country": "Portugal",     "lat": 41.14,  "lon": -7.72 },
  { "index": 25, "name": "Alentejo",              "country": "Portugal",     "lat": 38.57,  "lon": -7.91 },
  { "index": 26, "name": "Vinho Verde",           "country": "Portugal",     "lat": 41.70,  "lon": -8.30 },
  { "index": 27, "name": "Madeira",               "country": "Portugal",     "lat": 32.76,  "lon": -16.96},
  { "index": 28, "name": "Mosel",                 "country": "Germany",      "lat": 50.02,  "lon": 7.13  },
  { "index": 29, "name": "Rheingau",              "country": "Germany",      "lat": 50.07,  "lon": 8.00  },
  { "index": 30, "name": "Pfalz",                 "country": "Germany",      "lat": 49.31,  "lon": 8.15  },
  { "index": 31, "name": "Wachau",                "country": "Austria",      "lat": 48.37,  "lon": 15.43 },
  { "index": 32, "name": "Burgenland",            "country": "Austria",      "lat": 47.50,  "lon": 16.52 },
  { "index": 33, "name": "Santorini",             "country": "Greece",       "lat": 36.39,  "lon": 25.46 },
  { "index": 34, "name": "Nemea",                 "country": "Greece",       "lat": 37.82,  "lon": 22.67 },
  { "index": 35, "name": "Naoussa",               "country": "Greece",       "lat": 40.63,  "lon": 22.07 },
  { "index": 36, "name": "Kakheti",               "country": "Georgia",      "lat": 41.65,  "lon": 45.69 },
  { "index": 37, "name": "Tokaj",                 "country": "Hungary",      "lat": 48.12,  "lon": 21.41 },
  { "index": 38, "name": "Napa Valley",           "country": "USA",          "lat": 38.51,  "lon": -122.33},
  { "index": 39, "name": "Sonoma",                "country": "USA",          "lat": 38.29,  "lon": -122.46},
  { "index": 40, "name": "Willamette Valley",     "country": "USA",          "lat": 45.35,  "lon": -123.10},
  { "index": 41, "name": "Walla Walla",           "country": "USA",          "lat": 46.07,  "lon": -118.34},
  { "index": 42, "name": "Finger Lakes",          "country": "USA",          "lat": 42.72,  "lon": -76.87 },
  { "index": 43, "name": "Paso Robles",           "country": "USA",          "lat": 35.63,  "lon": -120.69},
  { "index": 44, "name": "Mendoza",               "country": "Argentina",    "lat": -32.89, "lon": -68.84 },
  { "index": 45, "name": "Salta",                 "country": "Argentina",    "lat": -24.79, "lon": -65.41 },
  { "index": 46, "name": "Maipo Valley",          "country": "Chile",        "lat": -33.76, "lon": -70.95 },
  { "index": 47, "name": "Casablanca Valley",     "country": "Chile",        "lat": -33.32, "lon": -71.41 },
  { "index": 48, "name": "Colchagua Valley",      "country": "Chile",        "lat": -34.64, "lon": -71.22 },
  { "index": 49, "name": "Stellenbosch",          "country": "South Africa", "lat": -33.93, "lon": 18.86  },
  { "index": 50, "name": "Swartland",             "country": "South Africa", "lat": -33.35, "lon": 18.76  },
  { "index": 51, "name": "Constantia",            "country": "South Africa", "lat": -34.03, "lon": 18.40  },
  { "index": 52, "name": "Barossa Valley",        "country": "Australia",    "lat": -34.53, "lon": 138.95 },
  { "index": 53, "name": "Clare Valley",          "country": "Australia",    "lat": -33.83, "lon": 138.61 },
  { "index": 54, "name": "Yarra Valley",          "country": "Australia",    "lat": -37.66, "lon": 145.55 },
  { "index": 55, "name": "Marlborough",           "country": "New Zealand",  "lat": -41.51, "lon": 173.96 },
  { "index": 56, "name": "Central Otago",         "country": "New Zealand",  "lat": -45.03, "lon": 169.33 },
  { "index": 57, "name": "Hawkes Bay",            "country": "New Zealand",  "lat": -39.65, "lon": 176.87 },
  { "index": 58, "name": "Okanagan Valley",       "country": "Canada",       "lat": 49.87,  "lon": -119.48},
  { "index": 59, "name": "Bekaa Valley",          "country": "Lebanon",      "lat": 33.85,  "lon": 36.01  },
  { "index": 60, "name": "Galilee",               "country": "Israel",       "lat": 32.98,  "lon": 35.50  },
  { "index": 61, "name": "Judean Hills",          "country": "Israel",       "lat": 31.68,  "lon": 35.02  },
  { "index": 62, "name": "Negev Highlands",       "country": "Israel",       "lat": 30.62,  "lon": 34.76  }
]
