[
  { "index": 0,  "name": "Burgundy",                  "country": "France",        "lat": 47.05,  "lon": 4.85   },
  { "index": 1,  "name": "Champagne",                 "country": "France",        "lat": 49.08,  "lon": 3.96   },
  { "index": 2,  "name": "Bordeaux",                  "country": "France",        "lat": 44.84,  "lon": -0.58  },
  { "index": 3,  "name": "Rhône Valley",              "country": "France",        "lat": 45.05,  "lon": 4.83   },
  { "index": 4,  "name": "Loire Valley",              "country": "France",        "lat": 47.39,  "lon": 0.69   },
  { "index": 5,  "name": "Alsace",                    "country": "France",        "lat": 48.26,  "lon": 7.44   },
  { "index": 6,  "name": "Jura",                      "country": "France",        "lat": 46.67,  "lon": 5.56   },
  { "index": 7,  "name": "Languedoc-Roussillon",      "country": "France",        "lat": 43.61,  "lon": 3.88   },
  { "index": 8,  "name": "Barolo",                    "country": "Italy",         "lat": 44.61,  "lon": 7.94   },
  { "index": 9,  "name": "Chianti Classico",          "country": "Italy",         "lat": 43.54,  "lon": 11.25  },
  { "index": 10, "name": "Brunello di Montalcino",    "country": "Italy",         "lat": 43.06,  "lon": 11.49  },
  { "index": 11, "name": "Amarone",                   "country": "Italy",         "lat": 45.52,  "lon": 10.97  },
  { "index": 12, "name": "Etna",                      "country": "Italy",         "lat": 37.73,  "lon": 15.00  },
  { "index": 13, "name": "Soave",                     "country": "Italy",         "lat": 45.42,  "lon": 11.25  },
  { "index": 14, "name": "Taurasi",                   "country": "Italy",         "lat": 40.98,  "lon": 15.02  },
  { "index": 15, "name": "Franciacorta",              "country": "Italy",         "lat": 45.60,  "lon": 10.00  },
  { "index": 16, "name": "Rioja",                     "country": "Spain",         "lat": 42.47,  "lon": -2.45  },
  { "index": 17, "name": "Ribera del Duero",          "country": "Spain",         "lat": 41.63,  "lon": -3.69  },
  { "index": 18, "name": "Priorat",                   "country": "Spain",         "lat": 41.19,  "lon": 0.75   },
  { "index": 19, "name": "Rías Baixas",               "country": "Spain",         "lat": 42.35,  "lon": -8.72  },
  { "index": 20, "name": "Jerez",                     "country": "Spain",         "lat": 36.69,  "lon": -6.14  },
  { "index": 21, "name": "Bierzo",                    "country": "Spain",         "lat": 42.60,  "lon": -6.73  },
  { "index": 22, "name": "Canary Islands",            "country": "Spain",         "lat": 28.29,  "lon": -16.63 },
  { "index": 23, "name": "Douro Valley",              "country": "Portugal",      "lat": 41.16,  "lon": -7.79  },
  { "index": 24, "name": "Port Wine",                 "country": "Portugal",      "lat": 41.14,  "lon": -7.72  },
  { "index": 25, "name": "Alentejo",                  "country": "Portugal",      "lat": 38.57,  "lon": -7.91  },
  { "index": 26, "name": "Vinho Verde",               "country": "Portugal",      "lat": 41.70,  "lon": -8.30  },
  { "index": 27, "name": "Madeira",                   "country": "Portugal",      "lat": 32.76,  "lon": -16.96 },
  { "index": 28, "name": "Mosel",                     "country": "Germany",       "lat": 50.02,  "lon": 7.13   },
  { "index": 29, "name": "Rheingau",                  "country": "Germany",       "lat": 50.07,  "lon": 8.00   },
  { "index": 30, "name": "Pfalz",                     "country": "Germany",       "lat": 49.31,  "lon": 8.15   },
  { "index": 31, "name": "Wachau",                    "country": "Austria",       "lat": 48.37,  "lon": 15.43  },
  { "index": 32, "name": "Burgenland",                "country": "Austria",       "lat": 47.50,  "lon": 16.52  },
  { "index": 33, "name": "Santorini",                 "country": "Greece",        "lat": 36.39,  "lon": 25.46  },
  { "index": 34, "name": "Nemea",                     "country": "Greece",        "lat": 37.82,  "lon": 22.67  },
  { "index": 35, "name": "Naoussa",                   "country": "Greece",        "lat": 40.63,  "lon": 22.07  },
  { "index": 36, "name": "Kakheti",                   "country": "Georgia",       "lat": 41.65,  "lon": 45.69  },
  { "index": 37, "name": "Tokaj",                     "country": "Hungary",       "lat": 48.12,  "lon": 21.41  },
  { "index": 38, "name": "Napa Valley",               "country": "USA",           "lat": 38.51,  "lon": -122.33},
  { "index": 39, "name": "Sonoma",                    "country": "USA",           "lat": 38.29,  "lon": -122.46},
  { "index": 40, "name": "Willamette Valley",         "country": "USA",           "lat": 45.35,  "lon": -123.10},
  { "index": 41, "name": "Walla Walla",               "country": "USA",           "lat": 46.07,  "lon": -118.34},
  { "index": 42, "name": "Finger Lakes",              "country": "USA",           "lat": 42.72,  "lon": -76.87 },
  { "index": 43, "name": "Paso Robles",               "country": "USA",           "lat": 35.63,  "lon": -120.69},
  { "index": 44, "name": "Mendoza",                   "country": "Argentina",     "lat": -32.89, "lon": -68.84 },
  { "index": 45, "name": "Salta",                     "country": "Argentina",     "lat": -24.79, "lon": -65.41 },
  { "index": 46, "name": "Maipo Valley",              "country": "Chile",         "lat": -33.76, "lon": -70.95 },
  { "index": 47, "name": "Casablanca Valley",         "country": "Chile",         "lat": -33.32, "lon": -71.41 },
  { "index": 48, "name": "Colchagua Valley",          "country": "Chile",         "lat": -34.64, "lon": -71.22 },
  { "index": 49, "name": "Stellenbosch",              "country": "South Africa",  "lat": -33.93, "lon": 18.86  },
  { "index": 50, "name": "Swartland",                 "country": "South Africa",  "lat": -33.35, "lon": 18.76  },
  { "index": 51, "name": "Constantia",                "country": "South Africa",  "lat": -34.03, "lon": 18.40  },
  { "index": 52, "name": "Barossa Valley",            "country": "Australia",     "lat": -34.53, "lon": 138.95 },
  { "index": 53, "name": "Clare Valley",              "country": "Australia",     "lat": -33.83, "lon": 138.61 },
  { "index": 54, "name": "Yarra Valley",              "country": "Australia",     "lat": -37.66, "lon": 145.55 },
  { "index": 55, "name": "Marlborough",               "country": "New Zealand",   "lat": -41.51, "lon": 173.96 },
  { "index": 56, "name": "Central Otago",             "country": "New Zealand",   "lat": -45.03, "lon": 169.33 },
  { "index": 57, "name": "Hawkes Bay",                "country": "New Zealand",   "lat": -39.65, "lon": 176.87 },
  { "index": 58, "name": "Okanagan Valley",           "country": "Canada",        "lat": 49.87,  "lon": -119.48},
  { "index": 59, "name": "Bekaa Valley",              "country": "Lebanon",       "lat": 33.85,  "lon": 36.01  },
  { "index": 60, "name": "Galilee",                   "country": "Israel",        "lat": 32.98,  "lon": 35.50  },
  { "index": 61, "name": "Judean Hills",              "country": "Israel",        "lat": 31.68,  "lon": 35.02  },
  { "index": 62, "name": "Negev Highlands",           "country": "Israel",        "lat": 30.62,  "lon": 34.76  },
  { "index": 63, "name": "Côte de Nuits",             "country": "France",        "lat": 47.18,  "lon": 4.96   },
  { "index": 64, "name": "Côte de Beaune",            "country": "France",        "lat": 46.97,  "lon": 4.84   },
  { "index": 65, "name": "Chablis",                   "country": "France",        "lat": 47.81,  "lon": 3.80   },
  { "index": 66, "name": "Provence",                  "country": "France",        "lat": 43.53,  "lon": 5.45   },
  { "index": 67, "name": "Roussillon",                "country": "France",        "lat": 42.69,  "lon": 2.89   },
  { "index": 68, "name": "Corsica",                   "country": "France",        "lat": 42.04,  "lon": 9.01   },
  { "index": 69, "name": "Valpolicella",              "country": "Italy",         "lat": 45.52,  "lon": 10.88  },
  { "index": 70, "name": "Sagrantino di Montefalco",  "country": "Italy",         "lat": 42.89,  "lon": 12.65  },
  { "index": 71, "name": "Vernaccia di San Gimignano","country": "Italy",         "lat": 43.47,  "lon": 11.04  },
  { "index": 72, "name": "Aglianico del Vulture",     "country": "Italy",         "lat": 40.96,  "lon": 15.65  },
  { "index": 73, "name": "Primitivo di Manduria",     "country": "Italy",         "lat": 40.40,  "lon": 17.64  },
  { "index": 74, "name": "Montepulciano d'Abruzzo",   "country": "Italy",         "lat": 42.35,  "lon": 14.10  },
  { "index": 75, "name": "Vermentino di Sardegna",    "country": "Italy",         "lat": 40.90,  "lon": 9.15   },
  { "index": 76, "name": "Lugana",                    "country": "Italy",         "lat": 45.47,  "lon": 10.62  },
  { "index": 77, "name": "Cava",                      "country": "Spain",         "lat": 41.39,  "lon": 1.73   },
  { "index": 78, "name": "Rueda",                     "country": "Spain",         "lat": 41.40,  "lon": -4.96  },
  { "index": 79, "name": "Toro",                      "country": "Spain",         "lat": 41.52,  "lon": -5.40  },
  { "index": 80, "name": "Jumilla",                   "country": "Spain",         "lat": 38.47,  "lon": -1.33  },
  { "index": 81, "name": "Dão",                       "country": "Portugal",      "lat": 40.52,  "lon": -7.92  },
  { "index": 82, "name": "Bairrada",                  "country": "Portugal",      "lat": 40.37,  "lon": -8.52  },
  { "index": 83, "name": "Lisboa",                    "country": "Portugal",      "lat": 39.10,  "lon": -9.25  },
  { "index": 84, "name": "Rheinhessen",               "country": "Germany",       "lat": 49.82,  "lon": 8.10   },
  { "index": 85, "name": "Baden",                     "country": "Germany",       "lat": 48.26,  "lon": 7.78   },
  { "index": 86, "name": "Nahe",                      "country": "Germany",       "lat": 49.81,  "lon": 7.84   },
  { "index": 87, "name": "Kamptal",                   "country": "Austria",       "lat": 48.44,  "lon": 15.72  },
  { "index": 88, "name": "Steiermark",                "country": "Austria",       "lat": 46.72,  "lon": 15.54  },
  { "index": 89, "name": "Crete",                     "country": "Greece",        "lat": 35.24,  "lon": 25.14  },
  { "index": 90, "name": "Istria",                    "country": "Croatia",       "lat": 45.21,  "lon": 13.95  },
  { "index": 91, "name": "Dalmatia",                  "country": "Croatia",       "lat": 43.51,  "lon": 16.44  },
  { "index": 92, "name": "Brda",                      "country": "Slovenia",      "lat": 45.96,  "lon": 13.57  },
  { "index": 93, "name": "Dealu Mare",                "country": "Romania",       "lat": 45.01,  "lon": 26.04  },
  { "index": 94, "name": "Thracian Valley",           "country": "Bulgaria",      "lat": 42.15,  "lon": 25.33  },
  { "index": 95, "name": "Cappadocia",                "country": "Turkey",        "lat": 38.65,  "lon": 34.83  },
  { "index": 96, "name": "Meknes",                    "country": "Morocco",       "lat": 33.89,  "lon": -5.55  },
  { "index": 97, "name": "Koshu",                     "country": "Japan",         "lat": 35.62,  "lon": 138.55 },
  { "index": 98, "name": "Valle de Guadalupe",        "country": "Mexico",        "lat": 32.02,  "lon": -116.60},
  { "index": 99, "name": "Canelones",                 "country": "Uruguay",       "lat": -34.52, "lon": -56.28 },
  { "index": 100,"name": "Serra Gaúcha",              "country": "Brazil",        "lat": -29.17, "lon": -51.53 },
  { "index": 101,"name": "Sussex",                    "country": "England",       "lat": 50.92,  "lon": -0.09  },
  { "index": 102,"name": "Santa Barbara",             "country": "USA",           "lat": 34.70,  "lon": -120.45},
  { "index": 103,"name": "Sta. Rita Hills",           "country": "USA",           "lat": 34.59,  "lon": -120.40},
  { "index": 104,"name": "Anderson Valley",           "country": "USA",           "lat": 39.12,  "lon": -123.46},
  { "index": 105,"name": "Red Mountain",              "country": "USA",           "lat": 46.25,  "lon": -119.53},
  { "index": 106,"name": "Lodi",                      "country": "USA",           "lat": 38.13,  "lon": -121.27},
  { "index": 107,"name": "Texas Hill Country",        "country": "USA",           "lat": 30.27,  "lon": -99.25 },
  { "index": 108,"name": "Coonawarra",                "country": "Australia",     "lat": -37.29, "lon": 140.82 },
  { "index": 109,"name": "Hunter Valley",             "country": "Australia",     "lat": -32.82, "lon": 151.17 },
  { "index": 110,"name": "McLaren Vale",              "country": "Australia",     "lat": -35.22, "lon": 138.55 },
  { "index": 111,"name": "Eden Valley",               "country": "Australia",     "lat": -34.52, "lon": 138.91 },
  { "index": 112,"name": "Luján de Cuyo",             "country": "Argentina",     "lat": -33.05, "lon": -68.88 },
  { "index": 113,"name": "Patagonia",                 "country": "Argentina",     "lat": -39.03, "lon": -67.57 },
  { "index": 114,"name": "Maule Valley",              "country": "Chile",         "lat": -35.52, "lon": -71.58 },
  { "index": 115,"name": "Elqui Valley",              "country": "Chile",         "lat": -29.92, "lon": -70.75 },
  { "index": 116,"name": "Leyda Valley",              "country": "Chile",         "lat": -33.60, "lon": -71.57 },
  { "index": 117,"name": "Walker Bay",                "country": "South Africa",  "lat": -34.42, "lon": 19.23  },
  { "index": 118,"name": "Elgin",                     "country": "South Africa",  "lat": -34.17, "lon": 19.05  },
  { "index": 119,"name": "Martinborough",             "country": "New Zealand",   "lat": -41.22, "lon": 175.46 },
  { "index": 120,"name": "Gisborne",                  "country": "New Zealand",   "lat": -38.66, "lon": 178.01 },
  { "index": 121,"name": "Xinjiang",                  "country": "China",         "lat": 43.79,  "lon": 87.60  },
  { "index": 122,"name": "Ningxia",                   "country": "China",         "lat": 38.47,  "lon": 106.27 },
  { "index": 123,"name": "Swartberg",                 "country": "South Africa",  "lat": -33.36, "lon": 21.67  },
  { "index": 124,"name": "Ribatejo",                  "country": "Portugal",      "lat": 39.46,  "lon": -8.33  },
  { "index": 125,"name": "Etna Bianco",               "country": "Italy",         "lat": 37.80,  "lon": 15.07  }
]
